var conciertos = 
[
{latitude: 40.40596, longitude: -3.6997805, address: 'Ronda de Valencia, 2, C.P. 28012, Madrid, Madrid, Madrid'},
{latitude: 40.424538, longitude: -3.7121284, address: 'Princesa, 1, C.P. 28008, Madrid, Madrid, Madrid'},
{latitude: 40.44617, longitude: -3.6779351, address: 'Príncipe de Vergara, 146, C.P. 28002, Madrid, Madrid, Madrid'},
{latitude: 40.46178, longitude: -3.685144, address: 'Menéndez Pidal, 3 bis., C.P. 28036, Madrid, Madrid, Madrid'},
{latitude: 40.431667, longitude: -3.6981611, address: 'Covarrubias, 42, C.P. 28010, Madrid, Madrid, Madrid'},
{latitude: 40.417084, longitude: -3.7065015, address: 'Arenal, 11, C.P. 28013, Madrid, Madrid, Madrid'},
{latitude: 40.41235, longitude: -3.703342, address: 'Plaza de Tirso de Molina, 1, C.P. 28012, Madrid, Madrid, Madrid'},
{latitude: 40.416775, longitude: -3.7037902, address: 'San Dimas, 3 (Y otras salas), Madrid, Madrid, Madrid'},
{latitude: 40.32566, longitude: -3.8830888, address: 'Avenida Iker Casillas, s/n, C.P. 28935, Móstoles, Madrid, Madrid'},
{latitude: 40.390945, longitude: -3.7313945, address: 'Cuclillo, 6, C.P. 28019, Madrid, Madrid, Madrid'},
{latitude: 40.423946, longitude: -3.6757965, address: 'Avenida de Felipe II, s/n, C.P. 28009, Madrid, Madrid, Madrid'},
{latitude: 40.454494, longitude: -3.6940415, address: 'Avenida Brasil, 5, C.P. 28020, Madrid, Madrid, Madrid'},
{latitude: 40.4139, longitude: -3.7153149, address: 'Paseo Bajo de la Virgen del Puerto, s/n (junto al Puente de Segovia), C.P. 28005, Madrid, Madrid, Madrid'},
{latitude: 40.42708, longitude: -3.6997316, address: 'Barceló, 11, C.P. 28004, Madrid, Madrid, Madrid'},
{latitude: 40.403996, longitude: -3.7000437, address: 'Bernardino Obregón, 18, C.P. 28012, Madrid, Madrid, Madrid'},
{latitude: 40.333305, longitude: -3.7625556, address: 'Avenida de Gibraltar, s/n (junto a La Cubierta), C.P. 28912, Leganés, Madrid, Madrid'},
{latitude: 40.38839, longitude: -3.7354965, address: 'Matilde Hernández, s/n, C.P. 28025, Madrid, Madrid, Madrid'},
{latitude: 40.435894, longitude: -3.714415, address: 'Andrés Mellado, 53, C.P. 28015, Madrid, Madrid, Madrid'},
{latitude: 40.483456, longitude: -3.3661106, address: 'Cervantes, 7, C.P. 28801, Alcalá de Henares, Madrid, Madrid'},
{latitude: 40.464245, longitude: -3.6567974, address: 'López de Hoyos, s/n. (c/v carretera Canillas), Madrid, Madrid, Madrid'},
{latitude: 40.55118, longitude: -3.625339, address: 'Avenida de los Reyes Católicos, s/n, C.P. 28701, San Sebastián de los Reyes, Madrid, Madrid'},
{latitude: 40.31951, longitude: -3.8718934, address: 'Plaza de Pradillo, s/n, C.P. 28934, Móstoles, Madrid, Madrid'},
{latitude: 40.41475, longitude: -3.7094169, address: 'Plaza del Conde de Miranda, 1, C.P. 28005, Madrid, Madrid, Madrid'},
{latitude: 40.424458, longitude: -3.6990948, address: 'Alburquerque, 14, C.P. 28004, Madrid, Madrid, Madrid'},
{latitude: 40.41369, longitude: -3.6996298, address: 'Huertas, 22, C.P. 28014, Madrid, Madrid, Madrid'},
{latitude: 40.30825, longitude: -3.7323935, address: 'Polígono Industrial Los Gavilanes, Getafe, Madrid, Madrid'},
{latitude: 40.41906, longitude: -3.7016397, address: 'Jardines, 3, C.P. 28013, Madrid, Madrid, Madrid'},
{latitude: 40.438557, longitude: -3.7098336, address: 'Galileo, 100, C.P. 28015, Madrid, Madrid, Madrid'},
{latitude: 40.48125, longitude: -3.3708994, address: 'Cardenal Sandoval y Rojas, s/n, C.P. 28802, Alcalá de Henares, Madrid, Madrid'},
{latitude: 40.427383, longitude: -3.6962433, address: 'Plaza Santa Bárbara, 10, C.P. 28004, Madrid, Madrid, Madrid'},
{latitude: 40.30825, longitude: -3.7323935, address: 'Polígono Industrial Los Gavilanes, Getafe, Madrid, Madrid'},
{latitude: 40.41959, longitude: -3.707943, address: 'Costanilla de los Ángeles, 20, C.P. 28013, Madrid, Madrid, Madrid'},
{latitude: 40.409386, longitude: -3.6979868, address: 'San Cosme y San Damián, 3, C.P. 28012, Madrid, Madrid, Madrid'},
{latitude: 40.42708, longitude: -3.6997316, address: 'Barceló, 11, C.P. 28004, Madrid, Madrid, Madrid'},
{latitude: 40.033203, longitude: -3.6043408, address: 'Postas, 5, C.P. 28300, Aranjuez, Madrid, Madrid'},
{latitude: 52.776154, longitude: 9.082503, address: ', Madrid'},
{latitude: 40.392506, longitude: -3.6972325, address: 'Paseo de la Chopera, 14, C.P. 28045, Madrid, Madrid, Madrid'},
{latitude: 40.43158, longitude: -3.6628633, address: 'Alcalá, 237, C.P. 28028, Madrid, Madrid, Madrid'},
{latitude: 40.54729, longitude: -3.6262105, address: 'Plaza de la Constitución, s/n, C.P. 28701, San Sebastián de los Reyes, Madrid, Madrid'},
{latitude: 40.326485, longitude: -3.758244, address: 'Maestro, 4, C.P. 28914, Leganés, Madrid, Madrid'},
{latitude: 40.43823, longitude: -3.7051735, address: 'Cea Bermúdez, 1, C.P. 28015, Madrid, Madrid, Madrid'},
{latitude: 40.440704, longitude: -3.6694174, address: 'Avenida de América, 41, C.P. 28002, Madrid, Madrid, Madrid'},
{latitude: 40.47703, longitude: -3.663139, address: 'Bacares, 22, Madrid, Madrid, Madrid'},
{latitude: 40.27871, longitude: -3.7876928, address: 'La Fuente, s/n, Fuenlabrada, Madrid, Madrid'},
{latitude: 40.4359, longitude: -3.716501, address: 'Hilarión Eslava, 36, C.P. 28015, Madrid, Madrid, Madrid'},
{latitude: 40.407417, longitude: -3.7261436, address: 'Sepúlveda, 3-5, C.P. 28011, Madrid, Madrid, Madrid'},
{latitude: 40.47006, longitude: -3.5790005, address: 'Ayerbe, s/n, Madrid, Madrid, Madrid'},
{latitude: 40.32514, longitude: -3.7691307, address: 'Plaza Mayor, s/n, C.P. 28911, Leganés, Madrid, Madrid'},
{latitude: 40.43489, longitude: -3.6967947, address: 'Paseo General Martínez Campos, 14, C.P. 28010, Madrid, Madrid, Madrid'},
{latitude: 40.414192, longitude: -3.7018926, address: 'Plaza del Ángel, 10, C.P. 28012, Madrid, Madrid, Madrid'},
{latitude: 40.40546, longitude: -3.6512983, address: 'Plaza del Encuentro, 1, C.P. 28030, Madrid, Madrid, Madrid'},
{latitude: 40.40501, longitude: -3.7105117, address: 'Morería, 17 (junto al Viaducto), C.P. 28005, Madrid, Madrid, Madrid'},
{latitude: 40.464413, longitude: -3.698126, address: 'Plaza de la Remonta, s/n, C.P. 28039, Madrid, Madrid, Madrid'},
{latitude: 40.442513, longitude: -3.7318232, address: 'Arquitecto López Otero, s/n (Ciudad Universataria), C.P. 28040, Madrid, Madrid, Madrid'},
{latitude: 40.412712, longitude: -3.7017336, address: 'Cañizares, 10, C.P. 28012, Madrid, Madrid, Madrid'},
{latitude: 40.41991, longitude: -3.7058926, address: 'Plaza del Callao, 4, C.P. 28013, Madrid, Madrid, Madrid'},
{latitude: 40.454494, longitude: -3.6940415, address: 'Avenida Brasil, 5, C.P. 28020, Madrid, Madrid, Madrid'},
{latitude: 40.436157, longitude: -3.7164843, address: 'Hilarión Eslava, 38, C.P. 28015, Madrid, Madrid, Madrid'},
{latitude: 40.421356, longitude: -3.707263, address: 'Gran Vía, 54, C.P. 28013, Madrid, Madrid, Madrid'},
{latitude: 40.32455, longitude: -3.863288, address: 'Avenida de la Constitución, 23, C.P. 28931, Móstoles, Madrid, Madrid'},
{latitude: 40.48261, longitude: -3.3639927, address: 'Plaza de Cervantes, s/n, C.P. 28801, Alcalá de Henares, Madrid, Madrid'},
{latitude: 40.51958, longitude: -3.6566827, address: 'Avenida de Europa, 13, C.P. 28108, Alcobendas, Madrid, Madrid'},
{latitude: 40.422413, longitude: -3.708938, address: 'Gran Vía, 66, C.P. 28013, Madrid, Madrid, Madrid'},
{latitude: 40.390976, longitude: -3.6860547, address: 'Avenida del Planetario, s/n, C.P. 28045, Madrid, Madrid, Madrid'},
{latitude: 40.42597, longitude: -3.6450636, address: 'Avenida Daroca, 90, Madrid, Madrid, Madrid'},
{latitude: 40.423065, longitude: -3.7003026, address: 'Augusto Figueroa, 3, C.P. 28004, Madrid, Madrid, Madrid'},
{latitude: 40.42813, longitude: -3.71073, address: 'Conde Duque, 11, C.P. 28015, Madrid, Madrid, Madrid'},
{latitude: 40.426895, longitude: -3.7077382, address: 'San Dimas, 3, C.P. 28015, Madrid, Madrid, Madrid'},
{latitude: 40.409607, longitude: -3.6992066, address: 'Zurita, 20, C.P. 28012, Madrid, Madrid, Madrid'},
{latitude: 40.02805, longitude: -3.6009612, address: 'Avenida Plaza de Toros, s/n, Aranjuez, Madrid, Madrid'},
{latitude: 40.4221, longitude: -3.704451, address: 'Corredera Baja de San Pablo, 15, C.P. 28004, Madrid, Madrid, Madrid'}
]